$GPGGA,190808.000,3921.8636,N,07503.0843,W,1,10,0.80,34.3,M,-34.1,M,,*6C
$GPGGA,190808.200,3921.8636,N,07503.0843,W,1,10,0.80,34.3,M,-34.1,M,,*6E
$GPGGA,190808.400,3921.8636,N,07503.0843,W,1,10,0.80,34.3,M,-34.1,M,,*68
$GPGGA,190808.600,3921.8636,N,07503.0843,W,1,10,0.80,34.3,M,-34.1,M,,*6A
$GPGGA,190808.800,3921.8636,N,07503.0843,W,1,10,0.80,34.3,M,-34.1,M,,*64
$GPGGA,190809.000,3921.8634,N,07503.0844,W,1,10,0.79,34.2,M,-34.1,M,,*6F
$GPGGA,190809.200,3921.8632,N,07503.0846,W,1,10,0.80,34.1,M,-34.1,M,,*6C
$GPGGA,190809.400,3921.8630,N,07503.0847,W,1,10,0.80,34.1,M,-34.1,M,,*69
$GPGGA,190809.600,3921.8627,N,07503.0849,W,1,10,0.80,34.0,M,-34.1,M,,*62
$GPGGA,190809.800,3921.8624,N,07503.0852,W,1,10,0.80,34.0,M,-34.1,M,,*65
$GPGGA,190810.000,3921.8620,N,07503.0855,W,1,10,0.80,33.9,M,-34.1,M,,*68
$GPGGA,190810.200,3921.8616,N,07503.0858,W,1,10,0.80,33.9,M,-34.1,M,,*62
$GPGGA,190810.400,3921.8612,N,07503.0861,W,1,10,0.80,33.9,M,-34.1,M,,*6A
$GPGGA,190810.600,3921.8607,N,07503.0864,W,1,10,0.80,33.9,M,-34.1,M,,*69
$GPGGA,190810.800,3921.8602,N,07503.0868,W,1,10,0.80,33.9,M,-34.1,M,,*6E
$GPGGA,190811.000,3921.8597,N,07503.0872,W,1,10,0.80,33.9,M,-34.1,M,,*63
$GPGGA,190811.200,3921.8591,N,07503.0876,W,1,10,0.80,33.8,M,-34.1,M,,*62
$GPGGA,190811.400,3921.8585,N,07503.0880,W,1,10,0.80,33.8,M,-34.1,M,,*68
$GPGGA,190811.600,3921.8579,N,07503.0885,W,1,10,0.80,33.8,M,-34.1,M,,*6C
$GPGGA,190811.800,3921.8572,N,07503.0890,W,1,10,0.80,33.8,M,-34.1,M,,*6D
$GPGGA,190812.000,3921.8564,N,07503.0896,W,1,10,0.80,33.8,M,-34.1,M,,*67
$GPGGA,190812.200,3921.8557,N,07503.0901,W,1,10,0.80,33.8,M,-34.1,M,,*6A
$GPGGA,190812.400,3921.8549,N,07503.0907,W,1,10,0.80,33.7,M,-34.1,M,,*6A
$GPGGA,190812.600,3921.8541,N,07503.0913,W,1,10,0.80,33.8,M,-34.1,M,,*6A
$GPGGA,190812.800,3921.8532,N,07503.0919,W,1,10,0.80,33.8,M,-34.1,M,,*6A
$GPGGA,190813.000,3921.8523,N,07503.0926,W,1,10,0.80,33.7,M,-34.1,M,,*60
$GPGGA,190813.200,3921.8514,N,07503.0934,W,1,10,0.80,33.6,M,-34.1,M,,*64
$GPGGA,190813.400,3921.8503,N,07503.0942,W,1,10,0.80,33.6,M,-34.1,M,,*65
$GPGGA,190813.600,3921.8493,N,07503.0950,W,1,10,0.80,33.7,M,-34.1,M,,*6D
$GPGGA,190813.800,3921.8483,N,07503.0958,W,1,10,0.80,33.7,M,-34.1,M,,*6A
$GPGGA,190814.000,3921.8472,N,07503.0967,W,1,10,0.80,33.8,M,-34.1,M,,*68
$GPGGA,190814.200,3921.8460,N,07503.0976,W,1,10,0.80,33.8,M,-34.1,M,,*69
$GPGGA,190814.400,3921.8448,N,07503.0985,W,1,10,0.80,33.8,M,-34.1,M,,*69
$GPGGA,190814.600,3921.8435,N,07503.0996,W,1,10,0.80,33.8,M,-34.1,M,,*63
$GPGGA,190814.800,3921.8423,N,07503.1006,W,1,10,0.80,33.8,M,-34.1,M,,*6B
$GPGGA,190815.000,3921.8410,N,07503.1016,W,1,10,0.80,33.8,M,-34.1,M,,*63
$GPGGA,190815.200,3921.8396,N,07503.1027,W,1,10,0.80,33.7,M,-34.1,M,,*65
$GPGGA,190815.400,3921.8383,N,07503.1039,W,1,10,0.80,33.6,M,-34.1,M,,*69
$GPGGA,190815.600,3921.8368,N,07503.1051,W,1,10,0.80,33.5,M,-34.1,M,,*63
$GPGGA,190815.800,3921.8354,N,07503.1063,W,1,10,0.80,33.5,M,-34.1,M,,*63
$GPGGA,190816.000,3921.8339,N,07503.1076,W,1,10,0.80,33.4,M,-34.1,M,,*66
$GPGGA,190816.200,3921.8323,N,07503.1089,W,1,10,0.80,33.3,M,-34.1,M,,*68
$GPGGA,190816.400,3921.8308,N,07503.1102,W,1,10,0.80,33.2,M,-34.1,M,,*64
$GPGGA,190816.600,3921.8293,N,07503.1116,W,1,10,0.80,33.1,M,-34.1,M,,*63
$GPGGA,190816.800,3921.8277,N,07503.1131,W,1,10,0.80,33.1,M,-34.1,M,,*62
$GPGGA,190817.000,3921.8260,N,07503.1145,W,1,10,0.80,32.9,M,-34.1,M,,*67
$GPGGA,190817.200,3921.8243,N,07503.1160,W,1,10,0.80,32.7,M,-34.1,M,,*6D
$GPGGA,190817.400,3921.8226,N,07503.1176,W,1,10,0.80,32.6,M,-34.1,M,,*6E
$GPGGA,190817.600,3921.8209,N,07503.1191,W,1,10,0.80,32.5,M,-34.1,M,,*6B
$GPGGA,190817.800,3921.8191,N,07503.1207,W,1,10,0.80,32.4,M,-34.1,M,,*6A
$GPGGA,190818.000,3921.8173,N,07503.1224,W,1,10,0.80,32.3,M,-34.1,M,,*67
$GPGGA,190818.200,3921.8154,N,07503.1241,W,1,10,0.80,32.2,M,-34.1,M,,*62
$GPGGA,190818.400,3921.8135,N,07503.1259,W,1,10,0.80,32.0,M,-34.1,M,,*68
$GPGGA,190818.600,3921.8115,N,07503.1276,W,1,10,0.80,31.9,M,-34.1,M,,*6F
$GPGGA,190818.800,3921.8096,N,07503.1293,W,1,10,0.80,31.7,M,-34.1,M,,*6E
$GPGGA,190819.000,3921.8077,N,07503.1311,W,1,10,0.80,31.7,M,-34.1,M,,*63
$GPGGA,190819.200,3921.8057,N,07503.1328,W,1,10,0.80,31.6,M,-34.1,M,,*68
$GPGGA,190819.400,3921.8037,N,07503.1347,W,1,10,0.80,31.4,M,-34.1,M,,*63
$GPGGA,190819.600,3921.8016,N,07503.1366,W,1,10,0.80,31.4,M,-34.1,M,,*61
$GPGGA,190819.800,3921.7996,N,07503.1385,W,1,10,0.80,31.3,M,-34.1,M,,*6B
$GPGGA,190820.000,3921.7975,N,07503.1404,W,1,10,0.80,31.2,M,-34.1,M,,*6B
$GPGGA,190820.200,3921.7954,N,07503.1423,W,1,10,0.80,31.2,M,-34.1,M,,*6F
$GPGGA,190820.400,3921.7933,N,07503.1442,W,1,10,0.80,31.1,M,-34.1,M,,*6C
$GPGGA,190820.600,3921.7912,N,07503.1462,W,1,10,0.80,31.0,M,-34.1,M,,*6E
$GPGGA,190820.800,3921.7890,N,07503.1482,W,1,10,0.80,31.0,M,-34.1,M,,*65
$GPGGA,190821.000,3921.7867,N,07503.1502,W,1,10,0.80,31.0,M,-34.1,M,,*6D
$GPGGA,190821.200,3921.7845,N,07503.1523,W,1,10,0.80,31.0,M,-34.1,M,,*6C
$GPGGA,190821.400,3921.7822,N,07503.1544,W,1,10,0.80,31.0,M,-34.1,M,,*6A
$GPGGA,190821.600,3921.7800,N,07503.1564,W,1,10,0.80,30.9,M,-34.1,M,,*62
$GPGGA,190821.800,3921.7777,N,07503.1585,W,1,10,0.80,30.9,M,-34.1,M,,*6C
$GPGGA,190822.000,3921.7753,N,07503.1606,W,1,10,0.80,30.9,M,-34.1,M,,*69
$GPGGA,190822.200,3921.7730,N,07503.1627,W,1,10,0.80,30.9,M,-34.1,M,,*6D
$GPGGA,190822.400,3921.7707,N,07503.1649,W,1,10,0.80,30.8,M,-34.1,M,,*66
$GPGGA,190822.600,3921.7684,N,07503.1670,W,1,10,0.80,30.7,M,-34.1,M,,*6B
$GPGGA,190822.800,3921.7661,N,07503.1690,W,1,10,0.80,30.6,M,-34.1,M,,*61
$GPGGA,190823.000,3921.7638,N,07503.1712,W,1,10,0.80,30.5,M,-34.1,M,,*6C
$GPGGA,190823.200,3921.7615,N,07503.1733,W,1,10,0.80,30.4,M,-34.1,M,,*63
$GPGGA,190823.400,3921.7591,N,07503.1754,W,1,10,0.80,30.3,M,-34.1,M,,*6C
$GPGGA,190823.600,3921.7568,N,07503.1775,W,1,10,0.80,30.1,M,-34.1,M,,*69
$GPGGA,190823.800,3921.7545,N,07503.1796,W,1,10,0.80,29.9,M,-34.1,M,,*65
$GPGGA,190824.000,3921.7522,N,07503.1818,W,1,10,0.80,29.8,M,-34.1,M,,*63
$GPGGA,190824.200,3921.7499,N,07503.1839,W,1,10,0.80,29.7,M,-34.1,M,,*6C
$GPGGA,190824.400,3921.7476,N,07503.1860,W,1,10,0.80,29.5,M,-34.1,M,,*65
$GPGGA,190824.600,3921.7453,N,07503.1882,W,1,10,0.80,29.3,M,-34.1,M,,*6A
$GPGGA,190824.800,3921.7429,N,07503.1903,W,1,10,0.80,29.2,M,-34.1,M,,*60
$GPGGA,190825.000,3921.7406,N,07503.1924,W,1,10,0.80,29.0,M,-34.1,M,,*63
$GPGGA,190825.200,3921.7382,N,07503.1946,W,1,10,0.80,28.9,M,-34.1,M,,*66
$GPGGA,190825.400,3921.7359,N,07503.1967,W,1,10,0.80,28.9,M,-34.1,M,,*65
$GPGGA,190825.600,3921.7335,N,07503.1989,W,1,10,0.80,28.7,M,-34.1,M,,*63
$GPGGA,190825.800,3921.7311,N,07503.2011,W,1,10,0.80,28.6,M,-34.1,M,,*61
$GPGGA,190826.000,3921.7287,N,07503.2032,W,1,10,0.80,28.5,M,-34.1,M,,*66
$GPGGA,190826.200,3921.7264,N,07503.2054,W,1,10,0.80,28.5,M,-34.1,M,,*69
$GPGGA,190826.400,3921.7240,N,07503.2075,W,1,10,0.80,28.6,M,-34.1,M,,*69
$GPGGA,190826.600,3921.7216,N,07503.2097,W,1,10,0.80,28.5,M,-34.1,M,,*67
$GPGGA,190826.800,3921.7193,N,07503.2118,W,1,10,0.80,28.4,M,-34.1,M,,*60
$GPGGA,190827.000,3921.7169,N,07503.2141,W,1,10,0.80,28.4,M,-34.1,M,,*60
$GPGGA,190827.200,3921.7145,N,07503.2163,W,1,10,0.80,28.4,M,-34.1,M,,*6C
$GPGGA,190827.400,3921.7121,N,07503.2184,W,1,10,0.80,28.4,M,-34.1,M,,*61
$GPGGA,190827.600,3921.7096,N,07503.2206,W,1,10,0.80,28.4,M,-34.1,M,,*67
$GPGGA,190827.800,3921.7073,N,07503.2228,W,1,10,0.80,28.4,M,-34.1,M,,*6E
$GPGGA,190828.000,3921.7048,N,07503.2249,W,1,10,0.80,28.3,M,-34.1,M,,*61
$GPGGA,190828.200,3921.7023,N,07503.2271,W,1,10,0.80,28.3,M,-34.1,M,,*65
$GPGGA,190828.400,3921.6999,N,07503.2294,W,1,10,0.80,28.4,M,-34.1,M,,*66
$GPGGA,190828.600,3921.6974,N,07503.2316,W,1,10,0.80,28.3,M,-34.1,M,,*6B
$GPGGA,190828.800,3921.6949,N,07503.2338,W,1,10,0.80,28.3,M,-34.1,M,,*67
$GPGGA,190829.000,3921.6926,N,07503.2360,W,1,10,0.80,28.3,M,-34.1,M,,*6A
$GPGGA,190829.200,3921.6901,N,07503.2382,W,1,10,0.80,28.2,M,-34.1,M,,*60
$GPGGA,190829.400,3921.6876,N,07503.2404,W,1,10,0.80,28.2,M,-34.1,M,,*6E
$GPGGA,190829.600,3921.6852,N,07503.2426,W,1,10,0.80,28.2,M,-34.1,M,,*6A
$GPGGA,190829.800,3921.6827,N,07503.2449,W,1,10,0.80,28.1,M,-34.1,M,,*6C
$GPGGA,190830.000,3921.6802,N,07503.2471,W,1,10,0.80,28.1,M,-34.1,M,,*60
$GPGGA,190830.200,3921.6778,N,07503.2493,W,1,10,0.80,28.0,M,-34.1,M,,*6D
$GPGGA,190830.400,3921.6753,N,07503.2515,W,1,10,0.80,28.1,M,-34.1,M,,*6C
$GPGGA,190830.600,3921.6729,N,07503.2537,W,1,10,0.80,28.1,M,-34.1,M,,*63
$GPGGA,190830.800,3921.6704,N,07503.2559,W,1,10,0.80,28.1,M,-34.1,M,,*6A
$GPGGA,190831.000,3921.6679,N,07503.2581,W,1,10,0.80,28.0,M,-34.1,M,,*6C
$GPGGA,190831.200,3921.6655,N,07503.2603,W,1,10,0.80,27.9,M,-34.1,M,,*6F
$GPGGA,190831.400,3921.6630,N,07503.2625,W,1,10,0.80,28.0,M,-34.1,M,,*68
$GPGGA,190831.600,3921.6606,N,07503.2646,W,1,10,0.80,28.1,M,-34.1,M,,*6B
$GPGGA,190831.800,3921.6582,N,07503.2668,W,1,10,0.80,28.1,M,-34.1,M,,*66
$GPGGA,190832.000,3921.6557,N,07503.2690,W,1,10,0.80,28.1,M,-34.1,M,,*62
$GPGGA,190832.200,3921.6533,N,07503.2712,W,1,10,0.80,28.2,M,-34.1,M,,*6A
$GPGGA,190832.400,3921.6509,N,07503.2733,W,1,10,0.80,28.2,M,-34.1,M,,*66
$GPGGA,190832.600,3921.6485,N,07503.2755,W,1,10,0.80,28.4,M,-34.1,M,,*67
$GPGGA,190832.800,3921.6461,N,07503.2776,W,1,10,0.80,28.5,M,-34.1,M,,*63
$GPGGA,190833.000,3921.6437,N,07503.2798,W,1,10,0.80,28.6,M,-34.1,M,,*6A
$GPGGA,190833.200,3921.6414,N,07503.2820,W,1,10,0.80,28.7,M,-34.1,M,,*64
$GPGGA,190833.400,3921.6390,N,07503.2842,W,1,10,0.80,28.7,M,-34.1,M,,*6D
$GPGGA,190833.600,3921.6367,N,07503.2863,W,1,10,0.80,28.9,M,-34.1,M,,*6A
$GPGGA,190833.800,3921.6345,N,07503.2885,W,1,10,0.80,29.1,M,-34.1,M,,*65
$GPGGA,190834.000,3921.6322,N,07503.2906,W,1,10,0.80,29.2,M,-34.1,M,,*62
$GPGGA,190834.200,3921.6300,N,07503.2928,W,1,10,0.80,29.2,M,-34.1,M,,*6C
$GPGGA,190834.400,3921.6278,N,07503.2950,W,1,10,0.80,29.4,M,-34.1,M,,*6D
$GPGGA,190834.600,3921.6257,N,07503.2972,W,1,10,0.80,29.6,M,-34.1,M,,*60
$GPGGA,190834.800,3921.6236,N,07503.2993,W,1,10,0.80,29.9,M,-34.1,M,,*69
$GPGGA,190835.000,3921.6217,N,07503.3015,W,1,10,0.80,30.3,M,-34.1,M,,*67
$GPGGA,190835.200,3921.6198,N,07503.3037,W,1,10,0.80,30.5,M,-34.1,M,,*67
$GPGGA,190835.400,3921.6180,N,07503.3059,W,1,10,0.80,30.8,M,-34.1,M,,*6D
$GPGGA,190835.600,3921.6163,N,07503.3082,W,1,10,0.80,31.1,M,-34.1,M,,*6C
$GPGGA,190835.800,3921.6146,N,07503.3105,W,1,10,0.80,31.4,M,-34.1,M,,*6E
$GPGGA,190836.000,3921.6131,N,07503.3128,W,1,10,0.80,31.7,M,-34.1,M,,*69
$GPGGA,190836.200,3921.6117,N,07503.3151,W,1,10,0.80,31.9,M,-34.1,M,,*6F
$GPGGA,190836.400,3921.6105,N,07503.3175,W,1,10,0.80,32.1,M,-34.1,M,,*67
$GPGGA,190836.600,3921.6093,N,07503.3198,W,1,10,0.80,32.4,M,-34.1,M,,*6D
$GPGGA,190836.800,3921.6083,N,07503.3223,W,1,10,0.80,32.7,M,-34.1,M,,*62
$GPGGA,190837.000,3921.6073,N,07503.3248,W,1,10,0.80,32.9,M,-34.1,M,,*67
$GPGGA,190837.200,3921.6064,N,07503.3274,W,1,10,0.80,33.1,M,-34.1,M,,*65
$GPGGA,190837.400,3921.6057,N,07503.3300,W,1,10,0.80,33.3,M,-34.1,M,,*63
$GPGGA,190837.600,3921.6050,N,07503.3326,W,1,10,0.80,33.5,M,-34.1,M,,*64
$GPGGA,190837.800,3921.6044,N,07503.3352,W,1,10,0.80,33.7,M,-34.1,M,,*6E
$GPGGA,190838.000,3921.6039,N,07503.3379,W,1,10,0.80,34.0,M,-34.1,M,,*6A
$GPGGA,190838.200,3921.6034,N,07503.3406,W,1,10,0.80,34.2,M,-34.1,M,,*68
$GPGGA,190838.400,3921.6031,N,07503.3434,W,1,10,0.80,34.3,M,-34.1,M,,*6B
$GPGGA,190838.600,3921.6027,N,07503.3462,W,1,10,0.80,34.5,M,-34.1,M,,*6B
$GPGGA,190838.800,3921.6024,N,07503.3490,W,1,10,0.80,34.7,M,-34.1,M,,*69
$GPGGA,190839.000,3921.6021,N,07503.3519,W,1,10,0.80,34.8,M,-34.1,M,,*6A
$GPGGA,190839.200,3921.6018,N,07503.3548,W,1,10,0.80,34.9,M,-34.1,M,,*67
$GPGGA,190839.400,3921.6016,N,07503.3579,W,1,10,0.80,34.9,M,-34.1,M,,*6D
$GPGGA,190839.600,3921.6014,N,07503.3610,W,1,10,0.80,34.8,M,-34.1,M,,*60
$GPGGA,190839.800,3921.6013,N,07503.3641,W,1,10,0.80,34.7,M,-34.1,M,,*62
$GPGGA,190840.000,3921.6012,N,07503.3673,W,1,10,0.80,34.5,M,-34.1,M,,*66
$GPGGA,190840.200,3921.6009,N,07503.3870,W,1,10,0.80,33.3,M,-34.1,M,,*62
$GPGGA,190840.400,3921.6010,N,07503.3905,W,1,10,0.80,32.9,M,-34.1,M,,*64
$GPGGA,190840.600,3921.6010,N,07503.3940,W,1,10,0.80,32.5,M,-34.1,M,,*6B
$GPGGA,190840.800,3921.6009,N,07503.3977,W,1,10,0.80,32.1,M,-34.1,M,,*6D
$GPGGA,190841.000,3921.6008,N,07503.4014,W,1,10,0.80,31.6,M,-34.1,M,,*6A
$GPGGA,190841.200,3921.6008,N,07503.4051,W,1,10,0.80,31.1,M,-34.1,M,,*6E
$GPGGA,190841.400,3921.6007,N,07503.4087,W,1,10,0.80,30.7,M,-34.1,M,,*6B
$GPGGA,190841.600,3921.6006,N,07503.4124,W,1,10,0.80,30.3,M,-34.1,M,,*64
$GPGGA,190841.800,3921.6005,N,07503.4160,W,1,10,0.80,29.9,M,-34.1,M,,*6B
$GPGGA,190842.000,3921.6003,N,07503.4198,W,1,10,0.80,29.4,M,-34.1,M,,*6C
$GPGGA,190842.200,3921.6002,N,07503.4235,W,1,10,0.80,29.1,M,-34.1,M,,*6E
$GPGGA,190842.400,3921.6001,N,07503.4272,W,1,10,0.80,28.8,M,-34.1,M,,*60
$GPGGA,190842.600,3921.5999,N,07503.4309,W,1,10,0.80,28.4,M,-34.1,M,,*68
$GPGGA,190842.800,3921.5998,N,07503.4346,W,1,10,0.80,28.0,M,-34.1,M,,*68
$GPGGA,190843.000,3921.5997,N,07503.4382,W,1,10,0.80,27.7,M,-34.1,M,,*6E
$GPGGA,190843.200,3921.5996,N,07503.4420,W,1,10,0.80,27.4,M,-34.1,M,,*61
$GPGGA,190843.400,3921.5994,N,07503.4457,W,1,10,0.80,27.0,M,-34.1,M,,*61
$GPGGA,190843.600,3921.5992,N,07503.4495,W,1,10,0.80,26.8,M,-34.1,M,,*62
$GPGGA,190843.800,3921.5991,N,07503.4533,W,1,10,0.80,26.5,M,-34.1,M,,*6F
$GPGGA,190844.000,3921.5990,N,07503.4570,W,1,10,0.80,26.2,M,-34.1,M,,*61
$GPGGA,190844.200,3921.5988,N,07503.4607,W,1,10,0.80,26.0,M,-34.1,M,,*6B
$GPGGA,190844.400,3921.5986,N,07503.4644,W,1,10,0.80,25.9,M,-34.1,M,,*6E
$GPGGA,190844.600,3921.5983,N,07503.4682,W,1,10,0.80,25.9,M,-34.1,M,,*63
$GPGGA,190844.800,3921.5981,N,07503.4720,W,1,10,0.80,25.7,M,-34.1,M,,*68
$GPGGA,190845.000,3921.5979,N,07503.4758,W,1,10,0.80,25.5,M,-34.1,M,,*6B
$GPGGA,190845.200,3921.5978,N,07503.4796,W,1,10,0.80,25.5,M,-34.1,M,,*6A
$GPGGA,190845.400,3921.5977,N,07503.4833,W,1,10,0.80,25.4,M,-34.1,M,,*62
$GPGGA,190845.600,3921.5976,N,07503.4870,W,1,10,0.80,25.4,M,-34.1,M,,*66
$GPGGA,190845.800,3921.5976,N,07503.4907,W,1,10,0.80,25.3,M,-34.1,M,,*6E
$GPGGA,190846.000,3921.5975,N,07503.4944,W,1,10,0.80,25.0,M,-34.1,M,,*62
$GPGGA,190846.200,3921.5977,N,07503.4982,W,1,10,0.80,24.9,M,-34.1,M,,*60
$GPGGA,190846.400,3921.5979,N,07503.5018,W,1,10,0.80,24.8,M,-34.1,M,,*62
$GPGGA,190846.600,3921.5981,N,07503.5054,W,1,10,0.80,24.7,M,-34.1,M,,*60
$GPGGA,190846.800,3921.5985,N,07503.5090,W,1,10,0.80,24.6,M,-34.1,M,,*63
$GPGGA,190847.000,3921.5990,N,07503.5126,W,1,10,0.80,24.5,M,-34.1,M,,*61
$GPGGA,190847.200,3921.5996,N,07503.5160,W,1,10,0.80,24.3,M,-34.1,M,,*61
$GPGGA,190847.400,3921.6003,N,07503.5195,W,1,10,0.80,24.2,M,-34.1,M,,*6A
$GPGGA,190847.600,3921.6011,N,07503.5229,W,1,10,0.80,24.2,M,-34.1,M,,*6F
$GPGGA,190847.800,3921.6020,N,07503.5263,W,1,10,0.80,24.1,M,-34.1,M,,*6E
$GPGGA,190848.000,3921.6030,N,07503.5296,W,1,10,0.80,24.0,M,-34.1,M,,*63
$GPGGA,190848.200,3921.6040,N,07503.5329,W,1,10,0.80,23.9,M,-34.1,M,,*6D
$GPGGA,190848.400,3921.6052,N,07503.5362,W,1,10,0.80,23.7,M,-34.1,M,,*69
$GPGGA,190848.600,3921.6064,N,07503.5392,W,1,10,0.80,23.5,M,-34.1,M,,*63
$GPGGA,190848.800,3921.6078,N,07503.5423,W,1,10,0.80,23.3,M,-34.1,M,,*6B
$GPGGA,190849.000,3921.6093,N,07503.5452,W,1,10,0.80,23.1,M,-34.1,M,,*63
$GPGGA,190849.200,3921.6109,N,07503.5480,W,1,10,0.80,23.0,M,-34.1,M,,*6D
$GPGGA,190849.400,3921.6126,N,07503.5509,W,1,10,0.80,22.9,M,-34.1,M,,*6E
$GPGGA,190849.600,3921.6143,N,07503.5536,W,1,10,0.80,22.8,M,-34.1,M,,*62
$GPGGA,190849.800,3921.6161,N,07503.5561,W,1,10,0.80,22.8,M,-34.1,M,,*6E
$GPGGA,190850.000,3921.6180,N,07503.5586,W,1,10,0.80,22.7,M,-34.1,M,,*67
$GPGGA,190850.200,3921.6200,N,07503.5610,W,1,10,0.80,22.6,M,-34.1,M,,*63
$GPGGA,190850.400,3921.6221,N,07503.5632,W,1,10,0.80,22.7,M,-34.1,M,,*67
$GPGGA,190850.600,3921.6243,N,07503.5653,W,1,10,0.80,22.8,M,-34.1,M,,*69
$GPGGA,190850.800,3921.6265,N,07503.5674,W,1,10,0.80,22.9,M,-34.1,M,,*67
$GPGGA,190851.000,3921.6287,N,07503.5693,W,1,10,0.80,22.9,M,-34.1,M,,*6B
$GPGGA,190851.200,3921.6310,N,07503.5712,W,1,10,0.80,23.1,M,-34.1,M,,*67
$GPGGA,190851.400,3921.6333,N,07503.5729,W,1,10,0.80,23.3,M,-34.1,M,,*6A
$GPGGA,190851.600,3921.6356,N,07503.5745,W,1,10,0.80,23.4,M,-34.1,M,,*66
$GPGGA,190851.800,3921.6380,N,07503.5759,W,1,10,0.80,23.6,M,-34.1,M,,*6C
$GPGGA,190852.000,3921.6404,N,07503.5773,W,1,10,0.80,23.6,M,-34.1,M,,*64
$GPGGA,190852.200,3921.6430,N,07503.5785,W,1,10,0.80,23.6,M,-34.1,M,,*68
$GPGGA,190852.400,3921.6456,N,07503.5796,W,1,10,0.80,23.7,M,-34.1,M,,*6D
$GPGGA,190852.600,3921.6481,N,07503.5807,W,1,10,0.80,23.8,M,-34.1,M,,*6D
$GPGGA,190852.800,3921.6506,N,07503.5816,W,1,10,0.80,23.7,M,-34.1,M,,*62
$GPGGA,190853.000,3921.6532,N,07503.5824,W,1,10,0.80,23.8,M,-34.1,M,,*62
$GPGGA,190853.200,3921.6557,N,07503.5830,W,1,10,0.80,23.8,M,-34.1,M,,*66
$GPGGA,190853.400,3921.6583,N,07503.5832,W,1,10,0.80,23.8,M,-34.1,M,,*6B
$GPGGA,190853.600,3921.6609,N,07503.5833,W,1,10,0.80,23.8,M,-34.1,M,,*69
$GPGGA,190853.800,3921.6635,N,07503.5834,W,1,10,0.80,23.9,M,-34.1,M,,*6E
$GPGGA,190854.000,3921.6660,N,07503.5833,W,1,10,0.80,23.9,M,-34.1,M,,*66
$GPGGA,190854.200,3921.6685,N,07503.5831,W,1,10,0.80,23.7,M,-34.1,M,,*63
$GPGGA,190854.400,3921.6709,N,07503.5829,W,1,10,0.90,23.7,M,-34.1,M,,*68
$GPGGA,190854.600,3921.6734,N,07503.5825,W,1,9,0.90,23.7,M,-34.1,M,,*50
$GPGGA,190854.800,3921.6758,N,07503.5819,W,1,10,0.80,23.6,M,-34.1,M,,*63
$GPGGA,190855.000,3921.6782,N,07503.5814,W,1,10,0.80,23.6,M,-34.1,M,,*60
$GPGGA,190855.200,3921.6806,N,07503.5808,W,1,10,0.80,23.6,M,-34.1,M,,*6C
$GPGGA,190855.400,3921.6830,N,07503.5801,W,1,10,0.80,23.5,M,-34.1,M,,*65
$GPGGA,190855.600,3921.6853,N,07503.5794,W,1,10,0.80,23.5,M,-34.1,M,,*61
$GPGGA,190855.800,3921.6876,N,07503.5788,W,1,10,0.80,23.4,M,-34.1,M,,*64
$GPGGA,190856.000,3921.6899,N,07503.5782,W,1,10,0.80,23.2,M,-34.1,M,,*62
$GPGGA,190856.200,3921.6922,N,07503.5776,W,1,10,0.80,23.0,M,-34.1,M,,*68
$GPGGA,190856.400,3921.6944,N,07503.5773,W,1,10,0.80,22.9,M,-34.1,M,,*63
$GPGGA,190856.600,3921.6965,N,07503.5770,W,1,10,0.80,23.0,M,-34.1,M,,*69
$GPGGA,190856.800,3921.6986,N,07503.5768,W,1,10,0.80,23.0,M,-34.1,M,,*63
$GPGGA,190857.000,3921.7008,N,07503.5767,W,1,10,0.80,23.0,M,-34.1,M,,*6B
$GPGGA,190857.200,3921.7029,N,07503.5767,W,1,10,0.80,22.8,M,-34.1,M,,*63
$GPGGA,190857.400,3921.7049,N,07503.5767,W,1,10,0.80,22.9,M,-34.1,M,,*62
$GPGGA,190857.600,3921.7069,N,07503.5770,W,1,10,0.80,22.9,M,-34.1,M,,*64
$GPGGA,190857.800,3921.7088,N,07503.5774,W,1,10,0.80,22.9,M,-34.1,M,,*61
$GPGGA,190858.000,3921.7107,N,07503.5781,W,1,10,0.80,22.8,M,-34.1,M,,*6B
$GPGGA,190858.200,3921.7126,N,07503.5787,W,1,10,0.80,22.9,M,-34.1,M,,*6D
$GPGGA,190858.400,3921.7145,N,07503.5796,W,1,10,0.80,23.1,M,-34.1,M,,*67
$GPGGA,190858.600,3921.7164,N,07503.5805,W,1,10,0.80,23.2,M,-34.1,M,,*60
$GPGGA,190858.800,3921.7182,N,07503.5815,W,1,10,0.80,23.1,M,-34.1,M,,*64
$GPGGA,190859.000,3921.7199,N,07503.5828,W,1,10,0.80,23.1,M,-34.1,M,,*69
$GPGGA,190859.200,3921.7216,N,07503.5842,W,1,10,0.80,23.0,M,-34.1,M,,*62
$GPGGA,190859.400,3921.7233,N,07503.5856,W,1,10,0.80,23.1,M,-34.1,M,,*67
$GPGGA,190859.600,3921.7250,N,07503.5872,W,1,10,0.80,23.1,M,-34.1,M,,*66
$GPGGA,190859.800,3921.7266,N,07503.5888,W,1,10,0.80,23.2,M,-34.1,M,,*6B
$GPGGA,190900.000,3921.7282,N,07503.5907,W,1,10,0.80,23.1,M,-34.1,M,,*61
$GPGGA,190900.200,3921.7298,N,07503.5927,W,1,10,0.80,23.1,M,-34.1,M,,*6A
$GPGGA,190900.400,3921.7313,N,07503.5948,W,1,10,0.80,23.1,M,-34.1,M,,*67
$GPGGA,190900.600,3921.7328,N,07503.5969,W,1,10,0.80,23.0,M,-34.1,M,,*6F
$GPGGA,190900.800,3921.7342,N,07503.5991,W,1,10,0.80,22.9,M,-34.1,M,,*62
$GPGGA,190901.000,3921.7356,N,07503.6015,W,1,10,0.80,22.7,M,-34.1,M,,*66
$GPGGA,190901.200,3921.7370,N,07503.6040,W,1,10,0.80,22.6,M,-34.1,M,,*61
$GPGGA,190901.400,3921.7384,N,07503.6064,W,1,10,0.80,22.4,M,-34.1,M,,*68
$GPGGA,190901.600,3921.7399,N,07503.6089,W,1,10,0.80,22.3,M,-34.1,M,,*62
$GPGGA,190901.800,3921.7413,N,07503.6115,W,1,10,0.80,22.3,M,-34.1,M,,*6D
$GPGGA,190902.000,3921.7428,N,07503.6141,W,1,10,0.80,22.1,M,-34.1,M,,*6D
$GPGGA,190902.200,3921.7443,N,07503.6166,W,1,10,0.80,22.0,M,-34.1,M,,*66
$GPGGA,190902.400,3921.7459,N,07503.6191,W,1,10,0.80,21.9,M,-34.1,M,,*69
$GPGGA,190902.600,3921.7475,N,07503.6216,W,1,10,0.80,21.9,M,-34.1,M,,*69
$GPGGA,190902.800,3921.7492,N,07503.6241,W,1,10,0.80,21.8,M,-34.1,M,,*6D
$GPGGA,190903.000,3921.7510,N,07503.6264,W,1,10,0.80,21.7,M,-34.1,M,,*67
$GPGGA,190903.200,3921.7528,N,07503.6287,W,1,10,0.80,21.4,M,-34.1,M,,*60
$GPGGA,190903.400,3921.7546,N,07503.6310,W,1,10,0.80,21.3,M,-34.1,M,,*66
$GPGGA,190903.600,3921.7565,N,07503.6333,W,1,10,0.80,21.3,M,-34.1,M,,*64
$GPGGA,190903.800,3921.7584,N,07503.6355,W,1,10,0.80,21.3,M,-34.1,M,,*65
$GPGGA,190904.000,3921.7604,N,07503.6376,W,1,10,0.80,21.1,M,-34.1,M,,*62
$GPGGA,190904.200,3921.7624,N,07503.6397,W,1,10,0.80,21.0,M,-34.1,M,,*6C
$GPGGA,190904.400,3921.7645,N,07503.6417,W,1,10,0.80,20.9,M,-34.1,M,,*6A
$GPGGA,190904.600,3921.7665,N,07503.6436,W,1,10,0.80,20.9,M,-34.1,M,,*69
$GPGGA,190904.800,3921.7686,N,07503.6456,W,1,10,0.80,20.7,M,-34.1,M,,*62
$GPGGA,190905.000,3921.7707,N,07503.6475,W,1,10,0.80,20.6,M,-34.1,M,,*63
$GPGGA,190905.200,3921.7728,N,07503.6494,W,1,10,0.80,20.4,M,-34.1,M,,*61
$GPGGA,190905.400,3921.7750,N,07503.6511,W,1,10,0.80,20.2,M,-34.1,M,,*62
$GPGGA,190905.600,3921.7773,N,07503.6526,W,1,10,0.80,20.1,M,-34.1,M,,*66
$GPGGA,190905.800,3921.7795,N,07503.6540,W,1,10,0.80,20.2,M,-34.1,M,,*63
$GPGGA,190906.000,3921.7818,N,07503.6553,W,1,10,0.80,20.2,M,-34.1,M,,*60
$GPGGA,190906.200,3921.7841,N,07503.6564,W,1,10,0.80,20.2,M,-34.1,M,,*6A
$GPGGA,190906.400,3921.7864,N,07503.6574,W,1,10,0.80,20.3,M,-34.1,M,,*6B
$GPGGA,190906.600,3921.7888,N,07503.6583,W,1,10,0.80,20.6,M,-34.1,M,,*66
$GPGGA,190906.800,3921.7911,N,07503.6590,W,1,10,0.80,20.7,M,-34.1,M,,*6A
$GPGGA,190907.000,3921.7935,N,07503.6595,W,1,10,0.80,20.9,M,-34.1,M,,*6E
$GPGGA,190907.200,3921.7959,N,07503.6600,W,1,10,0.80,21.2,M,-34.1,M,,*63
$GPGGA,190907.400,3921.7983,N,07503.6602,W,1,10,0.80,21.5,M,-34.1,M,,*67
$GPGGA,190907.600,3921.8006,N,07503.6603,W,1,10,0.80,21.9,M,-34.1,M,,*63
$GPGGA,190907.800,3921.8029,N,07503.6602,W,1,10,0.80,22.1,M,-34.1,M,,*6A
$GPGGA,190908.000,3921.8052,N,07503.6600,W,1,10,0.80,22.5,M,-34.1,M,,*67
$GPGGA,190908.200,3921.8075,N,07503.6595,W,1,10,0.80,22.8,M,-34.1,M,,*62
$GPGGA,190908.400,3921.8097,N,07503.6589,W,1,10,0.80,23.1,M,-34.1,M,,*6D
$GPGGA,190908.600,3921.8120,N,07503.6582,W,1,10,0.80,23.4,M,-34.1,M,,*6C
$GPGGA,190908.800,3921.8142,N,07503.6573,W,1,10,0.80,23.6,M,-34.1,M,,*6A
$GPGGA,190909.000,3921.8163,N,07503.6563,W,1,10,0.80,23.6,M,-34.1,M,,*61
$GPGGA,190909.200,3921.8184,N,07503.6551,W,1,10,0.80,23.7,M,-34.1,M,,*6A
$GPGGA,190909.400,3921.8205,N,07503.6538,W,1,10,0.80,23.6,M,-34.1,M,,*68
$GPGGA,190909.600,3921.8225,N,07503.6523,W,1,10,0.80,23.5,M,-34.1,M,,*61
$GPGGA,190909.800,3921.8247,N,07503.6508,W,1,10,0.80,23.4,M,-34.1,M,,*63
$GPGGA,190910.000,3921.8267,N,07503.6490,W,1,10,0.80,23.1,M,-34.1,M,,*64
$GPGGA,190910.200,3921.8287,N,07503.6471,W,1,10,0.80,22.9,M,-34.1,M,,*6E
$GPGGA,190910.400,3921.8306,N,07503.6451,W,1,10,0.80,22.7,M,-34.1,M,,*6C
$GPGGA,190910.600,3921.8325,N,07503.6432,W,1,10,0.80,22.5,M,-34.1,M,,*68
$GPGGA,190910.800,3921.8343,N,07503.6411,W,1,10,0.80,22.1,M,-34.1,M,,*63
$GPGGA,190911.000,3921.8360,N,07503.6390,W,1,10,0.80,21.8,M,-34.1,M,,*6F
$GPGGA,190911.200,3921.8376,N,07503.6367,W,1,10,0.80,21.6,M,-34.1,M,,*6C
$GPGGA,190911.400,3921.8393,N,07503.6343,W,1,10,0.80,21.3,M,-34.1,M,,*62
$GPGGA,190911.600,3921.8409,N,07503.6318,W,1,10,0.80,20.9,M,-34.1,M,,*61
$GPGGA,190911.800,3921.8425,N,07503.6292,W,1,10,0.80,20.8,M,-34.1,M,,*63
$GPGGA,190912.000,3921.8440,N,07503.6264,W,1,10,0.80,20.5,M,-34.1,M,,*6F
$GPGGA,190912.200,3921.8456,N,07503.6234,W,1,10,0.80,20.2,M,-34.1,M,,*68
$GPGGA,190912.400,3921.8471,N,07503.6205,W,1,10,0.80,20.0,M,-34.1,M,,*6B
$GPGGA,190912.600,3921.8485,N,07503.6174,W,1,10,0.80,19.8,M,-34.1,M,,*65
$GPGGA,190912.800,3921.8498,N,07503.6142,W,1,9,0.87,19.6,M,-34.1,M,,*53
$GPGGA,190913.000,3921.8511,N,07503.6111,W,1,9,0.88,19.6,M,-34.1,M,,*53
$GPGGA,190913.200,3921.8523,N,07503.6080,W,1,9,0.87,19.6,M,-34.1,M,,*56
$GPGGA,190913.400,3921.8534,N,07503.6047,W,1,9,0.87,19.7,M,-34.1,M,,*5C
$GPGGA,190913.600,3921.8544,N,07503.6014,W,1,9,0.87,19.7,M,-34.1,M,,*5F
$GPGGA,190913.800,3921.8555,N,07503.5980,W,1,10,0.80,19.7,M,-34.1,M,,*69
$GPGGA,190914.000,3921.8566,N,07503.5946,W,1,10,0.80,19.7,M,-34.1,M,,*6C
$GPGGA,190914.200,3921.8576,N,07503.5911,W,1,10,0.80,19.7,M,-34.1,M,,*6D
$GPGGA,190914.400,3921.8585,N,07503.5876,W,1,10,0.80,19.6,M,-34.1,M,,*66
$GPGGA,190914.600,3921.8594,N,07503.5840,W,1,10,0.80,19.4,M,-34.1,M,,*63
$GPGGA,190914.800,3921.8602,N,07503.5804,W,1,10,0.80,19.2,M,-34.1,M,,*67
$GPGGA,190915.000,3921.8612,N,07503.5767,W,1,10,0.80,19.0,M,-34.1,M,,*67
$GPGGA,190915.200,3921.8620,N,07503.5730,W,1,10,0.80,18.8,M,-34.1,M,,*6F
$GPGGA,190915.400,3921.8628,N,07503.5693,W,1,10,0.80,18.7,M,-34.1,M,,*66
$GPGGA,190915.600,3921.8635,N,07503.5655,W,1,10,0.80,18.5,M,-34.1,M,,*60
$GPGGA,190915.800,3921.8642,N,07503.5618,W,1,10,0.80,18.3,M,-34.1,M,,*61
$GPGGA,190916.000,3921.8648,N,07503.5582,W,1,10,0.80,18.2,M,-34.1,M,,*61
$GPGGA,190916.200,3921.8654,N,07503.5544,W,1,10,0.80,18.1,M,-34.1,M,,*67
$GPGGA,190916.400,3921.8658,N,07503.5506,W,1,10,0.80,18.0,M,-34.1,M,,*6A
$GPGGA,190916.600,3921.8663,N,07503.5467,W,1,10,0.80,17.9,M,-34.1,M,,*60
$GPGGA,190916.800,3921.8668,N,07503.5429,W,1,10,0.80,17.7,M,-34.1,M,,*61
$GPGGA,190917.000,3921.8672,N,07503.5390,W,1,10,0.80,17.8,M,-34.1,M,,*69
$GPGGA,190917.200,3921.8675,N,07503.5350,W,1,10,0.80,17.8,M,-34.1,M,,*60
$GPGGA,190917.400,3921.8679,N,07503.5311,W,1,10,0.80,17.8,M,-34.1,M,,*6F
$GPGGA,190917.600,3921.8682,N,07503.5272,W,1,10,0.80,17.6,M,-34.1,M,,*63
$GPGGA,190917.800,3921.8684,N,07503.5232,W,1,10,0.80,17.5,M,-34.1,M,,*6C
$GPGGA,190918.000,3921.8685,N,07503.5194,W,1,10,0.80,17.5,M,-34.1,M,,*65
$GPGGA,190918.200,3921.8686,N,07503.5155,W,1,10,0.80,17.5,M,-34.1,M,,*69
$GPGGA,190918.400,3921.8686,N,07503.5117,W,1,10,0.80,17.3,M,-34.1,M,,*6F
$GPGGA,190918.600,3921.8685,N,07503.5080,W,1,10,0.80,17.2,M,-34.1,M,,*60
$GPGGA,190918.800,3921.8685,N,07503.5041,W,1,10,0.80,17.1,M,-34.1,M,,*60
$GPGGA,190919.000,3921.8683,N,07503.5002,W,1,10,0.80,17.0,M,-34.1,M,,*69
$GPGGA,190919.200,3921.8680,N,07503.4963,W,1,10,0.80,17.0,M,-34.1,M,,*67
$GPGGA,190919.400,3921.8678,N,07503.4925,W,1,10,0.80,16.9,M,-34.1,M,,*6C
$GPGGA,190919.600,3921.8674,N,07503.4885,W,1,10,0.80,16.6,M,-34.1,M,,*66
$GPGGA,190919.800,3921.8669,N,07503.4848,W,1,10,0.80,16.5,M,-34.1,M,,*66
$GPGGA,190920.000,3921.8665,N,07503.4809,W,1,10,0.80,16.4,M,-34.1,M,,*6C
$GPGGA,190920.200,3921.8660,N,07503.4771,W,1,10,0.80,16.2,M,-34.1,M,,*6D
$GPGGA,190920.400,3921.8654,N,07503.4732,W,1,10,0.80,16.0,M,-34.1,M,,*69
$GPGGA,190920.600,3921.8648,N,07503.4695,W,1,10,0.80,15.9,M,-34.1,M,,*60
$GPGGA,190920.800,3921.8640,N,07503.4658,W,1,10,0.80,16.0,M,-34.1,M,,*6D
$GPGGA,190921.000,3921.8633,N,07503.4621,W,1,10,0.80,16.0,M,-34.1,M,,*6E
$GPGGA,190921.200,3921.8624,N,07503.4584,W,1,10,0.80,15.8,M,-34.1,M,,*6D
$GPGGA,190921.400,3921.8616,N,07503.4548,W,1,10,0.80,15.7,M,-34.1,M,,*65
$GPGGA,190921.600,3921.8608,N,07503.4512,W,1,10,0.80,15.6,M,-34.1,M,,*66
$GPGGA,190921.800,3921.8598,N,07503.4476,W,1,10,0.80,15.6,M,-34.1,M,,*61
$GPGGA,190922.000,3921.8588,N,07503.4440,W,1,10,0.80,15.6,M,-34.1,M,,*6E
$GPGGA,190922.200,3921.8577,N,07503.4406,W,1,10,0.80,15.6,M,-34.1,M,,*6E
$GPGGA,190922.400,3921.8566,N,07503.4370,W,1,10,0.80,15.6,M,-34.1,M,,*6E
$GPGGA,190922.600,3921.8555,N,07503.4335,W,1,10,0.80,15.8,M,-34.1,M,,*63
$GPGGA,190922.800,3921.8542,N,07503.4299,W,1,10,0.80,15.8,M,-34.1,M,,*6C
$GPGGA,190923.000,3921.8530,N,07503.4264,W,1,10,0.80,15.9,M,-34.1,M,,*63
$GPGGA,190923.200,3921.8516,N,07503.4230,W,1,10,0.80,15.9,M,-34.1,M,,*64
$GPGGA,190923.400,3921.8502,N,07503.4196,W,1,10,0.80,15.8,M,-34.1,M,,*69
$GPGGA,190923.600,3921.8487,N,07503.4162,W,1,10,0.80,15.8,M,-34.1,M,,*6C
$GPGGA,190923.800,3921.8472,N,07503.4128,W,1,10,0.80,15.9,M,-34.1,M,,*67
$GPGGA,190924.000,3921.8457,N,07503.4095,W,1,10,0.80,15.8,M,-34.1,M,,*69
$GPGGA,190924.200,3921.8441,N,07503.4062,W,1,10,0.80,15.7,M,-34.1,M,,*6B
$GPGGA,190924.400,3921.8424,N,07503.4029,W,1,10,0.80,15.7,M,-34.1,M,,*61
$GPGGA,190924.600,3921.8407,N,07503.3997,W,1,10,0.80,15.8,M,-34.1,M,,*66
$GPGGA,190924.800,3921.8389,N,07503.3966,W,1,10,0.80,15.9,M,-34.1,M,,*66
$GPGGA,190925.000,3921.8372,N,07503.3935,W,1,10,0.80,15.9,M,-34.1,M,,*6D
$GPGGA,190925.200,3921.8354,N,07503.3904,W,1,10,0.80,15.9,M,-34.1,M,,*69
$GPGGA,190925.400,3921.8337,N,07503.3873,W,1,10,0.80,16.0,M,-34.1,M,,*61
$GPGGA,190925.600,3921.8319,N,07503.3843,W,1,10,0.80,16.1,M,-34.1,M,,*6D
$GPGGA,190925.800,3921.8302,N,07503.3812,W,1,10,0.80,16.1,M,-34.1,M,,*6D
$GPGGA,190926.000,3921.8284,N,07503.3782,W,1,10,0.80,16.1,M,-34.1,M,,*6F
$GPGGA,190926.200,3921.8266,N,07503.3752,W,1,10,0.80,16.2,M,-34.1,M,,*6F
$GPGGA,190926.400,3921.8248,N,07503.3720,W,1,10,0.80,16.2,M,-34.1,M,,*60
$GPGGA,190926.600,3921.8231,N,07503.3689,W,1,10,0.80,16.2,M,-34.1,M,,*6E
$GPGGA,190926.800,3921.8214,N,07503.3659,W,1,10,0.80,16.3,M,-34.1,M,,*6B
$GPGGA,190927.000,3921.8196,N,07503.3628,W,1,10,0.80,16.4,M,-34.1,M,,*6A
$GPGGA,190927.200,3921.8178,N,07503.3598,W,1,10,0.80,16.4,M,-34.1,M,,*60
$GPGGA,190927.400,3921.8160,N,07503.3567,W,1,10,0.80,16.4,M,-34.1,M,,*6F
$GPGGA,190927.600,3921.8142,N,07503.3537,W,1,10,0.80,16.3,M,-34.1,M,,*6F
$GPGGA,190927.800,3921.8125,N,07503.3506,W,1,10,0.80,16.6,M,-34.1,M,,*67
$GPGGA,190928.000,3921.8107,N,07503.3477,W,1,10,0.80,16.8,M,-34.1,M,,*69
$GPGGA,190928.200,3921.8090,N,07503.3446,W,1,10,0.80,16.8,M,-34.1,M,,*66
$GPGGA,190928.400,3921.8073,N,07503.3414,W,1,10,0.80,16.7,M,-34.1,M,,*65
$GPGGA,190928.600,3921.8056,N,07503.3383,W,1,10,0.80,16.7,M,-34.1,M,,*69
$GPGGA,190928.800,3921.8041,N,07503.3352,W,1,10,0.80,16.5,M,-34.1,M,,*6F
$GPGGA,190929.000,3921.8025,N,07503.3321,W,1,10,0.80,16.3,M,-34.1,M,,*66
$GPGGA,190929.200,3921.8009,N,07503.3290,W,1,10,0.80,16.1,M,-34.1,M,,*63
$GPGGA,190929.400,3921.7993,N,07503.3261,W,1,10,0.80,15.9,M,-34.1,M,,*65
$GPGGA,190929.600,3921.7978,N,07503.3232,W,1,10,0.80,15.7,M,-34.1,M,,*6A
$GPGGA,190929.800,3921.7962,N,07503.3203,W,1,10,0.80,15.5,M,-34.1,M,,*6F
$GPGGA,190930.000,3921.7947,N,07503.3175,W,1,10,0.80,15.3,M,-34.1,M,,*6C
$GPGGA,190930.200,3921.7932,N,07503.3147,W,1,10,0.80,15.2,M,-34.1,M,,*6C
$GPGGA,190930.400,3921.7918,N,07503.3119,W,1,10,0.80,15.2,M,-34.1,M,,*69
$GPGGA,190930.600,3921.7904,N,07503.3092,W,1,10,0.80,15.2,M,-34.1,M,,*64
$GPGGA,190930.800,3921.7890,N,07503.3066,W,1,10,0.80,15.0,M,-34.1,M,,*6F
$GPGGA,190931.000,3921.7877,N,07503.3041,W,1,10,0.80,14.8,M,-34.1,M,,*63
$GPGGA,190931.200,3921.7865,N,07503.3016,W,1,10,0.80,14.9,M,-34.1,M,,*61
$GPGGA,190931.400,3921.7854,N,07503.2991,W,1,10,0.80,14.9,M,-34.1,M,,*62
$GPGGA,190931.600,3921.7844,N,07503.2967,W,1,10,0.80,14.8,M,-34.1,M,,*69
$GPGGA,190931.800,3921.7834,N,07503.2943,W,1,10,0.80,14.7,M,-34.1,M,,*69
$GPGGA,190932.000,3921.7826,N,07503.2919,W,1,10,0.80,14.7,M,-34.1,M,,*6E
$GPGGA,190932.200,3921.7818,N,07503.2896,W,1,10,0.80,14.6,M,-34.1,M,,*66
$GPGGA,190932.400,3921.7810,N,07503.2872,W,1,10,0.80,14.6,M,-34.1,M,,*62
$GPGGA,190932.600,3921.7804,N,07503.2848,W,1,10,0.80,14.5,M,-34.1,M,,*6F
$GPGGA,190932.800,3921.7798,N,07503.2825,W,1,10,0.80,14.4,M,-34.1,M,,*61
$GPGGA,190933.000,3921.7795,N,07503.2801,W,1,10,0.80,14.3,M,-34.1,M,,*64
$GPGGA,190933.200,3921.7792,N,07503.2778,W,1,10,0.80,14.2,M,-34.1,M,,*61
$GPGGA,190933.400,3921.7790,N,07503.2756,W,1,10,0.80,14.2,M,-34.1,M,,*69
$GPGGA,190933.600,3921.7789,N,07503.2734,W,1,10,0.80,14.2,M,-34.1,M,,*67
$GPGGA,190933.800,3921.7789,N,07503.2714,W,1,10,0.80,14.0,M,-34.1,M,,*69
$GPGGA,190934.000,3921.7790,N,07503.2692,W,1,10,0.80,14.0,M,-34.1,M,,*61
$GPGGA,190934.200,3921.7792,N,07503.2670,W,1,10,0.80,14.0,M,-34.1,M,,*6D
$GPGGA,190934.400,3921.7796,N,07503.2649,W,1,10,0.80,14.1,M,-34.1,M,,*64
$GPGGA,190934.600,3921.7800,N,07503.2627,W,1,10,0.80,14.0,M,-34.1,M,,*6F
$GPGGA,190934.800,3921.7806,N,07503.2605,W,1,10,0.80,13.9,M,-34.1,M,,*69
$GPGGA,190935.000,3921.7814,N,07503.2583,W,1,10,0.80,13.9,M,-34.1,M,,*6E
$GPGGA,190935.200,3921.7821,N,07503.2561,W,1,10,0.80,13.9,M,-34.1,M,,*66
$GPGGA,190935.400,3921.7830,N,07503.2540,W,1,10,0.80,13.9,M,-34.1,M,,*63
$GPGGA,190935.600,3921.7841,N,07503.2520,W,1,10,0.80,14.0,M,-34.1,M,,*6F
$GPGGA,190935.800,3921.7852,N,07503.2500,W,1,10,0.80,13.8,M,-34.1,M,,*6E
$GPGGA,190936.000,3921.7863,N,07503.2482,W,1,10,0.80,13.9,M,-34.1,M,,*6D
$GPGGA,190936.200,3921.7876,N,07503.2463,W,1,10,0.80,14.0,M,-34.1,M,,*6A
$GPGGA,190936.400,3921.7890,N,07503.2445,W,1,10,0.80,14.1,M,-34.1,M,,*61
$GPGGA,190936.600,3921.7904,N,07503.2427,W,1,10,0.80,14.1,M,-34.1,M,,*6B
$GPGGA,190936.800,3921.7920,N,07503.2411,W,1,10,0.80,14.1,M,-34.1,M,,*66
$GPGGA,190937.000,3921.7935,N,07503.2395,W,1,10,0.80,14.2,M,-34.1,M,,*63
$GPGGA,190937.200,3921.7951,N,07503.2379,W,1,10,0.80,14.3,M,-34.1,M,,*60
$GPGGA,190937.400,3921.7968,N,07503.2364,W,1,10,0.80,14.3,M,-34.1,M,,*60
$GPGGA,190937.600,3921.7986,N,07503.2349,W,1,10,0.80,14.2,M,-34.1,M,,*6C
$GPGGA,190937.800,3921.8004,N,07503.2334,W,1,10,0.80,14.2,M,-34.1,M,,*64
$GPGGA,190938.000,3921.8023,N,07503.2320,W,1,10,0.80,14.3,M,-34.1,M,,*62
$GPGGA,190938.200,3921.8042,N,07503.2307,W,1,10,0.80,14.4,M,-34.1,M,,*65
$GPGGA,190938.400,3921.8062,N,07503.2294,W,1,10,0.80,14.5,M,-34.1,M,,*6B
$GPGGA,190938.600,3921.8081,N,07503.2281,W,1,10,0.80,14.5,M,-34.1,M,,*60
$GPGGA,190938.800,3921.8102,N,07503.2270,W,1,10,0.80,14.5,M,-34.1,M,,*6A
$GPGGA,190939.000,3921.8123,N,07503.2257,W,1,10,0.80,14.5,M,-34.1,M,,*65
$GPGGA,190939.200,3921.8144,N,07503.2244,W,1,10,0.80,14.7,M,-34.1,M,,*66
$GPGGA,190939.400,3921.8165,N,07503.2232,W,1,10,0.80,14.9,M,-34.1,M,,*6C
$GPGGA,190939.600,3921.8188,N,07503.2220,W,1,10,0.80,15.0,M,-34.1,M,,*66
$GPGGA,190939.800,3921.8210,N,07503.2207,W,1,10,0.80,15.0,M,-34.1,M,,*6F
$GPGGA,190940.000,3921.8233,N,07503.2194,W,1,10,0.80,15.4,M,-34.1,M,,*65
$GPGGA,190940.200,3921.8256,N,07503.2182,W,1,10,0.80,15.6,M,-34.1,M,,*61
$GPGGA,190940.400,3921.8280,N,07503.2169,W,1,10,0.80,15.7,M,-34.1,M,,*68
$GPGGA,190940.600,3921.8303,N,07503.2157,W,1,10,0.80,15.7,M,-34.1,M,,*6D
$GPGGA,190940.800,3921.8328,N,07503.2146,W,1,10,0.80,15.9,M,-34.1,M,,*64
$GPGGA,190941.000,3921.8352,N,07503.2134,W,1,10,0.80,16.1,M,-34.1,M,,*6E
$GPGGA,190941.200,3921.8378,N,07503.2121,W,1,10,0.80,16.3,M,-34.1,M,,*62
$GPGGA,190941.400,3921.8404,N,07503.2109,W,1,10,0.80,16.4,M,-34.1,M,,*65
$GPGGA,190941.600,3921.8431,N,07503.2097,W,1,10,0.80,16.4,M,-34.1,M,,*67
$GPGGA,190941.800,3921.8456,N,07503.2085,W,1,10,0.80,16.5,M,-34.1,M,,*6A
$GPGGA,190942.000,3921.8481,N,07503.2076,W,1,10,0.80,16.7,M,-34.1,M,,*65
$GPGGA,190942.200,3921.8507,N,07503.2066,W,1,10,0.80,16.8,M,-34.1,M,,*66
$GPGGA,190942.400,3921.8533,N,07503.2057,W,1,10,0.80,16.7,M,-34.1,M,,*6A
$GPGGA,190942.600,3921.8558,N,07503.2048,W,1,10,0.80,16.8,M,-34.1,M,,*64
$GPGGA,190942.800,3921.8585,N,07503.2039,W,1,10,0.80,16.9,M,-34.1,M,,*6D
$GPGGA,190943.000,3921.8611,N,07503.2029,W,1,10,0.80,17.0,M,-34.1,M,,*63
$GPGGA,190943.200,3921.8638,N,07503.2020,W,1,10,0.80,17.1,M,-34.1,M,,*62
$GPGGA,190943.400,3921.8665,N,07503.2011,W,1,10,0.80,17.1,M,-34.1,M,,*6E
$GPGGA,190943.600,3921.8693,N,07503.2002,W,1,10,0.80,17.1,M,-34.1,M,,*67
$GPGGA,190943.800,3921.8721,N,07503.1994,W,1,10,0.80,17.1,M,-34.1,M,,*64
$GPGGA,190944.000,3921.8748,N,07503.1987,W,1,10,0.80,17.0,M,-34.1,M,,*67
$GPGGA,190944.200,3921.8777,N,07503.1979,W,1,10,0.80,17.0,M,-34.1,M,,*68
$GPGGA,190944.400,3921.8804,N,07503.1972,W,1,10,0.80,16.7,M,-34.1,M,,*68
$GPGGA,190944.600,3921.8832,N,07503.1967,W,1,10,0.80,16.6,M,-34.1,M,,*6A
$GPGGA,190944.800,3921.8861,N,07503.1961,W,1,10,0.80,16.6,M,-34.1,M,,*64
$GPGGA,190945.000,3921.8890,N,07503.1955,W,1,10,0.80,16.4,M,-34.1,M,,*66
$GPGGA,190945.200,3921.8919,N,07503.1951,W,1,10,0.80,16.3,M,-34.1,M,,*67
$GPGGA,190945.400,3921.8948,N,07503.1947,W,1,10,0.80,16.2,M,-34.1,M,,*63
$GPGGA,190945.600,3921.8977,N,07503.1944,W,1,10,0.80,16.0,M,-34.1,M,,*6C
$GPGGA,190945.800,3921.9006,N,07503.1941,W,1,10,0.80,15.9,M,-34.1,M,,*63
$GPGGA,190946.000,3921.9036,N,07503.1939,W,1,10,0.80,15.8,M,-34.1,M,,*65
$GPGGA,190946.200,3921.9065,N,07503.1938,W,1,10,0.80,15.6,M,-34.1,M,,*6E
$GPGGA,190946.400,3921.9096,N,07503.1937,W,1,10,0.80,15.4,M,-34.1,M,,*69
$GPGGA,190946.600,3921.9126,N,07503.1938,W,1,10,0.80,15.3,M,-34.1,M,,*69
$GPGGA,190946.800,3921.9155,N,07503.1941,W,1,10,0.80,15.2,M,-34.1,M,,*6C
$GPGGA,190947.000,3921.9185,N,07503.1944,W,1,10,0.80,15.0,M,-34.1,M,,*6F
$GPGGA,190947.200,3921.9214,N,07503.1948,W,1,9,0.90,14.8,M,-34.1,M,,*5A
$GPGGA,190947.400,3921.9244,N,07503.1952,W,1,9,0.90,14.7,M,-34.1,M,,*5D
$GPGGA,190947.600,3921.9275,N,07503.1956,W,1,10,0.80,14.6,M,-34.1,M,,*61
$GPGGA,190947.800,3921.9305,N,07503.1961,W,1,10,0.80,14.4,M,-34.1,M,,*6F
$GPGGA,190948.000,3921.9335,N,07503.1966,W,1,10,0.80,14.2,M,-34.1,M,,*6A
$GPGGA,190948.200,3921.9366,N,07503.1972,W,1,10,0.80,14.1,M,-34.1,M,,*68
$GPGGA,190948.400,3921.9396,N,07503.1977,W,1,10,0.80,13.9,M,-34.1,M,,*6B
$GPGGA,190948.600,3921.9427,N,07503.1983,W,1,10,0.80,13.9,M,-34.1,M,,*6F
$GPGGA,190948.800,3921.9458,N,07503.1989,W,1,9,0.90,13.8,M,-34.1,M,,*5B
$GPGGA,190949.000,3921.9489,N,07503.1994,W,1,9,0.90,13.7,M,-34.1,M,,*5D
$GPGGA,190949.200,3921.9519,N,07503.1999,W,1,10,0.80,13.5,M,-34.1,M,,*61
$GPGGA,190949.400,3921.9550,N,07503.2004,W,1,10,0.80,13.5,M,-34.1,M,,*64
$GPGGA,190949.600,3921.9582,N,07503.2007,W,1,10,0.80,13.4,M,-34.1,M,,*6B
$GPGGA,190949.800,3921.9613,N,07503.2011,W,1,10,0.80,13.5,M,-34.1,M,,*68
$GPGGA,190950.000,3921.9643,N,07503.2014,W,1,10,0.80,13.5,M,-34.1,M,,*68
$GPGGA,190950.200,3921.9674,N,07503.2017,W,1,10,0.80,13.3,M,-34.1,M,,*6B
$GPGGA,190950.400,3921.9704,N,07503.2021,W,1,10,0.80,13.2,M,-34.1,M,,*6F
$GPGGA,190950.600,3921.9733,N,07503.2023,W,1,10,0.80,13.2,M,-34.1,M,,*6B
$GPGGA,190950.800,3921.9764,N,07503.2024,W,1,10,0.80,13.3,M,-34.1,M,,*61
$GPGGA,190951.000,3921.9794,N,07503.2024,W,1,10,0.80,13.3,M,-34.1,M,,*67
$GPGGA,190951.200,3921.9823,N,07503.2022,W,1,10,0.80,13.3,M,-34.1,M,,*60
$GPGGA,190951.400,3921.9853,N,07503.2019,W,1,10,0.80,13.3,M,-34.1,M,,*69
$GPGGA,190951.600,3921.9882,N,07503.2014,W,1,10,0.80,13.5,M,-34.1,M,,*6C
$GPGGA,190951.800,3921.9912,N,07503.2009,W,1,10,0.80,13.5,M,-34.1,M,,*66
$GPGGA,190952.000,3921.9940,N,07503.2002,W,1,10,0.80,13.5,M,-34.1,M,,*61
$GPGGA,190952.200,3921.9969,N,07503.1993,W,1,10,0.80,13.5,M,-34.1,M,,*6A
$GPGGA,190952.400,3921.9997,N,07503.1984,W,1,10,0.80,13.6,M,-34.1,M,,*68
$GPGGA,190952.600,3922.0025,N,07503.1974,W,1,10,0.80,13.6,M,-34.1,M,,*6F
$GPGGA,190952.800,3922.0052,N,07503.1962,W,1,10,0.80,13.8,M,-34.1,M,,*68
$GPGGA,190953.000,3922.0079,N,07503.1949,W,1,10,0.80,13.9,M,-34.1,M,,*60
$GPGGA,190953.200,3922.0106,N,07503.1934,W,1,10,0.80,14.0,M,-34.1,M,,*6F
$GPGGA,190953.400,3922.0132,N,07503.1919,W,1,10,0.80,14.1,M,-34.1,M,,*60
$GPGGA,190953.600,3922.0156,N,07503.1902,W,1,10,0.80,14.2,M,-34.1,M,,*69
$GPGGA,190953.800,3922.0181,N,07503.1883,W,1,10,0.80,14.3,M,-34.1,M,,*64
$GPGGA,190954.000,3922.0204,N,07503.1863,W,1,10,0.80,14.4,M,-34.1,M,,*6C
$GPGGA,190954.200,3922.0226,N,07503.1843,W,1,10,0.80,14.3,M,-34.1,M,,*6B
$GPGGA,190954.400,3922.0248,N,07503.1821,W,1,10,0.80,14.4,M,-34.1,M,,*66
$GPGGA,190954.600,3922.0269,N,07503.1797,W,1,10,0.80,14.5,M,-34.1,M,,*64
$GPGGA,190954.800,3922.0288,N,07503.1772,W,1,10,0.80,14.5,M,-34.1,M,,*6E
$GPGGA,190955.000,3922.0307,N,07503.1748,W,1,9,0.87,14.5,M,-34.1,M,,*57
$GPGGA,190955.200,3922.0323,N,07503.1723,W,1,9,0.87,14.5,M,-34.1,M,,*5E
$GPGGA,190955.400,3922.0338,N,07503.1697,W,1,9,0.87,14.6,M,-34.1,M,,*5F
$GPGGA,190955.600,3922.0353,N,07503.1669,W,1,9,0.87,14.6,M,-34.1,M,,*51
$GPGGA,190955.800,3922.0366,N,07503.1640,W,1,9,0.87,14.6,M,-34.1,M,,*52
$GPGGA,190956.000,3922.0379,N,07503.1610,W,1,9,0.87,14.6,M,-34.1,M,,*52
$GPGGA,190956.200,3922.0392,N,07503.1580,W,1,9,0.87,14.6,M,-34.1,M,,*5F
$GPGGA,190956.400,3922.0402,N,07503.1547,W,1,9,0.87,14.7,M,-34.1,M,,*5D
$GPGGA,190956.600,3922.0411,N,07503.1515,W,1,9,0.87,14.8,M,-34.1,M,,*55
$GPGGA,190956.800,3922.0420,N,07503.1481,W,1,9,0.87,14.7,M,-34.1,M,,*5A
$GPGGA,190957.000,3922.0428,N,07503.1448,W,1,9,0.88,14.5,M,-34.1,M,,*53
$GPGGA,190957.200,3922.0433,N,07503.1414,W,1,9,0.87,14.5,M,-34.1,M,,*5D
$GPGGA,190957.400,3922.0437,N,07503.1380,W,1,9,0.87,14.5,M,-34.1,M,,*55
$GPGGA,190957.600,3922.0440,N,07503.1344,W,1,9,0.87,14.5,M,-34.1,M,,*5F
$GPGGA,190957.800,3922.0441,N,07503.1310,W,1,9,0.87,14.5,M,-34.1,M,,*51
$GPGGA,190958.000,3922.0442,N,07503.1275,W,1,9,0.87,14.5,M,-34.1,M,,*57
$GPGGA,190958.200,3922.0442,N,07503.1238,W,1,9,0.87,14.5,M,-34.1,M,,*5C
$GPGGA,190958.400,3922.0440,N,07503.1203,W,1,9,0.87,14.6,M,-34.1,M,,*53
$GPGGA,190958.600,3922.0436,N,07503.1168,W,1,9,0.87,14.6,M,-34.1,M,,*5E
$GPGGA,190958.800,3922.0431,N,07503.1133,W,1,9,0.87,14.6,M,-34.1,M,,*59
$GPGGA,190959.000,3922.0423,N,07503.1098,W,1,9,0.87,14.6,M,-34.1,M,,*53
$GPGGA,190959.200,3922.0416,N,07503.1065,W,1,9,0.87,14.5,M,-34.1,M,,*56
$GPGGA,190959.400,3922.0407,N,07503.1032,W,1,9,0.87,14.5,M,-34.1,M,,*52
$GPGGA,190959.600,3922.0397,N,07503.1000,W,1,9,0.87,14.5,M,-34.1,M,,*5F
$GPGGA,190959.800,3922.0386,N,07503.0968,W,1,9,0.88,14.4,M,-34.1,M,,*59
$GPGGA,191000.000,3922.0373,N,07503.0938,W,1,9,0.87,14.3,M,-34.1,M,,*52
$GPGGA,191000.200,3922.0359,N,07503.0908,W,1,9,0.87,14.2,M,-34.1,M,,*5A
$GPGGA,191000.400,3922.0343,N,07503.0879,W,1,9,0.87,14.3,M,-34.1,M,,*51
$GPGGA,191000.600,3922.0326,N,07503.0851,W,1,9,0.87,14.2,M,-34.1,M,,*5B
$GPGGA,191000.800,3922.0309,N,07503.0823,W,1,9,0.87,14.2,M,-34.1,M,,*5D
$GPGGA,191001.000,3922.0290,N,07503.0796,W,1,9,0.87,14.2,M,-34.1,M,,*54
$GPGGA,191001.200,3922.0271,N,07503.0771,W,1,9,0.87,14.1,M,-34.1,M,,*53
$GPGGA,191001.400,3922.0250,N,07503.0747,W,1,9,0.88,14.0,M,-34.1,M,,*5D
$GPGGA,191001.600,3922.0228,N,07503.0724,W,1,9,0.87,13.8,M,-34.1,M,,*55
$GPGGA,191001.800,3922.0206,N,07503.0703,W,1,9,0.87,13.8,M,-34.1,M,,*52
$GPGGA,191002.000,3922.0183,N,07503.0683,W,1,9,0.87,13.7,M,-34.1,M,,*51
$GPGGA,191002.200,3922.0159,N,07503.0663,W,1,9,0.87,13.5,M,-34.1,M,,*58
$GPGGA,191002.400,3922.0136,N,07503.0644,W,1,9,0.87,13.4,M,-34.1,M,,*53
$GPGGA,191002.600,3922.0111,N,07503.0627,W,1,9,0.87,13.4,M,-34.1,M,,*51
$GPGGA,191002.800,3922.0086,N,07503.0610,W,1,9,0.87,13.2,M,-34.1,M,,*52
$GPGGA,191003.000,3922.0061,N,07503.0595,W,1,9,0.87,13.0,M,-34.1,M,,*5E
$GPGGA,191003.200,3922.0035,N,07503.0581,W,1,9,0.87,13.0,M,-34.1,M,,*58
$GPGGA,191003.400,3922.0009,N,07503.0569,W,1,9,0.88,13.0,M,-34.1,M,,*58
$GPGGA,191003.600,3921.9982,N,07503.0558,W,1,9,0.88,12.9,M,-34.1,M,,*50
$GPGGA,191003.800,3921.9955,N,07503.0548,W,1,9,0.87,12.8,M,-34.1,M,,*5B
$GPGGA,191004.000,3921.9927,N,07503.0540,W,1,9,0.87,12.8,M,-34.1,M,,*59
$GPGGA,191004.200,3921.9900,N,07503.0533,W,1,9,0.87,12.9,M,-34.1,M,,*5B
$GPGGA,191004.400,3921.9872,N,07503.0527,W,1,9,0.87,12.9,M,-34.1,M,,*5C
$GPGGA,191004.600,3921.9844,N,07503.0522,W,1,9,0.87,12.9,M,-34.1,M,,*5E
$GPGGA,191004.800,3921.9817,N,07503.0519,W,1,9,0.87,12.9,M,-34.1,M,,*5E
$GPGGA,191005.000,3921.9788,N,07503.0517,W,1,9,0.87,12.9,M,-34.1,M,,*50
$GPGGA,191005.200,3921.9759,N,07503.0515,W,1,9,0.88,13.0,M,-34.1,M,,*5B
$GPGGA,191005.400,3921.9730,N,07503.0513,W,1,9,0.87,13.2,M,-34.1,M,,*59
$GPGGA,191005.600,3921.9702,N,07503.0513,W,1,9,0.87,13.3,M,-34.1,M,,*5B
$GPGGA,191005.800,3921.9673,N,07503.0514,W,1,9,0.87,13.3,M,-34.1,M,,*55
$GPGGA,191006.000,3921.9644,N,07503.0514,W,1,9,0.88,13.3,M,-34.1,M,,*55
$GPGGA,191006.200,3921.9614,N,07503.0515,W,1,9,0.87,13.4,M,-34.1,M,,*5B
$GPGGA,191006.400,3921.9585,N,07503.0518,W,1,9,0.87,13.5,M,-34.1,M,,*5A
$GPGGA,191006.600,3921.9555,N,07503.0522,W,1,9,0.87,13.6,M,-34.1,M,,*5F
$GPGGA,191006.800,3921.9527,N,07503.0525,W,1,9,0.87,13.5,M,-34.1,M,,*50
$GPGGA,191007.000,3921.9497,N,07503.0528,W,1,9,0.87,13.5,M,-34.1,M,,*5E
$GPGGA,191007.200,3921.9468,N,07503.0532,W,1,9,0.87,13.6,M,-34.1,M,,*54
$GPGGA,191007.400,3921.9438,N,07503.0537,W,1,9,0.87,13.7,M,-34.1,M,,*53
$GPGGA,191007.600,3921.9409,N,07503.0542,W,1,9,0.87,13.7,M,-34.1,M,,*51
$GPGGA,191007.800,3921.9380,N,07503.0548,W,1,9,0.87,13.6,M,-34.1,M,,*52
$GPGGA,191008.000,3921.9351,N,07503.0555,W,1,9,0.87,13.6,M,-34.1,M,,*55
$GPGGA,191008.200,3921.9322,N,07503.0560,W,1,9,0.87,13.6,M,-34.1,M,,*55
$GPGGA,191008.400,3921.9293,N,07503.0568,W,1,9,0.87,13.7,M,-34.1,M,,*51
$GPGGA,191008.600,3921.9264,N,07503.0576,W,1,9,0.87,13.8,M,-34.1,M,,*5B
$GPGGA,191008.800,3921.9235,N,07503.0585,W,1,9,0.87,13.8,M,-34.1,M,,*5D
$GPGGA,191009.000,3921.9206,N,07503.0595,W,1,9,0.87,14.0,M,-34.1,M,,*5A
$GPGGA,191009.200,3921.9178,N,07503.0606,W,1,9,0.87,14.0,M,-34.1,M,,*5B
$GPGGA,191009.400,3921.9149,N,07503.0615,W,1,9,0.87,14.3,M,-34.1,M,,*5E
$GPGGA,191009.600,3921.9121,N,07503.0626,W,1,9,0.88,14.6,M,-34.1,M,,*58
$GPGGA,191009.800,3921.9092,N,07503.0637,W,1,9,0.87,14.7,M,-34.1,M,,*51
$GPGGA,191010.000,3921.9064,N,07503.0649,W,1,9,0.87,14.8,M,-34.1,M,,*5E
$GPGGA,191010.200,3921.9036,N,07503.0662,W,1,9,0.87,14.9,M,-34.1,M,,*53
$GPGGA,191010.400,3921.9007,N,07503.0675,W,1,9,0.87,15.2,M,-34.1,M,,*5B
$GPGGA,191010.600,3921.8978,N,07503.0688,W,1,9,0.87,15.5,M,-34.1,M,,*5C
$GPGGA,191010.800,3921.8950,N,07503.0702,W,1,9,0.87,15.7,M,-34.1,M,,*59
$GPGGA,191011.000,3921.8922,N,07503.0717,W,1,9,0.87,15.9,M,-34.1,M,,*5F
$GPGGA,191011.200,3921.8894,N,07503.0731,W,1,9,0.87,16.0,M,-34.1,M,,*5F
$GPGGA,191011.400,3921.8866,N,07503.0745,W,1,9,0.87,16.1,M,-34.1,M,,*56
$GPGGA,191011.600,3921.8838,N,07503.0760,W,1,9,0.87,16.5,M,-34.1,M,,*5C
$GPGGA,191011.800,3921.8810,N,07503.0775,W,1,9,0.88,16.8,M,-34.1,M,,*5E
$GPGGA,191012.000,3921.8781,N,07503.0791,W,1,9,0.88,16.9,M,-34.1,M,,*59
$GPGGA,191012.200,3921.8753,N,07503.0808,W,1,9,0.88,17.1,M,-34.1,M,,*52
$GPGGA,191012.400,3921.8726,N,07503.0824,W,1,9,0.87,17.2,M,-34.1,M,,*54
